City_ID,City,Lat,Lng,Max Temp,Humidity,Cloudiness,Wind Speed,Country,Date
0,zapadnaya dvina,56.259,32.0745,18.3,95,99,6.87,RU,1701193201
1,margaret river,-33.95,115.0667,57.85,91,3,3.2,AU,1701192996
2,adamstown,-25.066,-130.1015,73.63,86,99,17.4,PN,1701193202
3,cockburn town,21.4612,-71.1419,80.83,68,6,10.87,TC,1701193032
4,newman,37.3138,-121.0208,56.23,41,21,4.16,US,1701193202
5,bethel,41.3712,-73.414,39.2,54,40,12.66,US,1701193158
6,francisco javier mina,24.4934,-104.4857,53.71,29,0,3.18,MX,1701193203
7,iskateley,67.6803,53.1512,1.02,95,88,11.01,RU,1701193203
8,waitangi,-43.9535,-176.5597,58.82,93,82,5.99,NZ,1701193203
9,udachny,66.4167,112.4,0.01,93,98,20.8,RU,1701193204
10,west island,-12.1568,96.8225,78.78,73,40,11.5,CC,1701193204
11,longyearbyen,78.2186,15.6401,37.24,75,75,11.5,SJ,1701193204
12,omutinskiy,56.4745,67.6709,29.19,79,75,12.91,RU,1701193205
13,iqaluit,63.7506,-68.5145,29.93,92,75,20.71,CA,1701193205
14,bredasdorp,-34.5322,20.0403,62.64,64,24,11.48,ZA,1701193205
15,wailua homesteads,22.0669,-159.378,69.85,85,75,4.61,US,1701193205
16,fort bragg,35.139,-79.006,52.83,34,0,19.57,US,1701193206
17,magumeri,12.1131,12.8274,82.02,19,29,8.59,NG,1701193206
18,chonchi,-42.6128,-73.8092,61.12,58,78,9.73,CL,1701193206
19,sola,-13.8833,167.55,79.48,83,48,18.28,VU,1701193206
20,mournies,35.4764,24.0092,65.82,77,20,0.0,GR,1701193207
21,enewetak,11.3474,162.3373,82.17,77,91,22.68,MH,1701193207
22,afaahiti,-17.75,-149.2833,80.47,85,99,21.88,PF,1701193207
23,qaqortoq,60.7167,-46.0333,19.02,66,100,7.43,GL,1701193207
24,polyarnyy,69.1989,33.4478,28.22,84,91,16.82,RU,1701193133
25,blackmans bay,-43.0167,147.3167,51.93,95,97,6.11,AU,1701193208
26,yanchep,-31.55,115.6833,66.94,85,19,4.5,AU,1701193208
27,bel ombre,-4.6167,55.4167,78.64,89,20,1.14,SC,1701193208
28,kavaratti,10.5669,72.642,83.84,72,93,7.29,IN,1701193208
29,olonkinbyen,70.9221,-8.7187,35.65,75,50,11.25,SJ,1701193208
30,grytviken,-54.2811,-36.5092,34.48,72,8,7.99,GS,1701193209
31,albany,42.6001,-73.9662,35.02,43,73,5.99,US,1701193209
32,derazhnya,49.2692,27.4338,32.41,77,100,15.03,UA,1701193209
33,sao goncalo do sapucai,-21.8922,-45.5953,82.15,60,97,4.38,BR,1701193209
34,andergrove,-21.0833,149.1833,72.64,88,30,11.77,AU,1701193209
35,mirnyy,62.5353,113.9611,-1.77,77,24,8.99,RU,1701193210
36,howrah,22.5892,88.3103,75.2,69,20,0.0,IN,1701193210
37,puerto deseado,-47.7503,-65.8938,69.22,22,2,21.34,AR,1701193210
38,hithadhoo,-0.6,73.0833,82.35,75,100,8.88,MV,1701193210
39,atafu village,-8.5421,-172.5159,81.88,81,100,20.15,TK,1701193211
40,st. john's,47.5649,-52.7093,49.78,96,100,37.98,CA,1701193211
41,saudarkrokur,65.7461,-19.6394,35.51,95,100,4.61,IS,1701193211
42,fort mcmurray,56.7268,-111.381,36.99,64,0,12.66,CA,1701193211
43,purpe,64.4803,76.6897,28.81,98,100,8.08,RU,1701193211
44,morehead city,34.7229,-76.726,48.25,50,0,12.66,US,1701192992
45,prince rupert,54.3161,-130.3201,46.09,100,100,16.11,CA,1701193212
46,las heras,-46.5419,-68.9359,67.32,22,27,39.73,AR,1701193212
47,puerto baquerizo moreno,-0.9,-89.6,83.39,79,75,16.11,EC,1701193212
48,georgetown,5.4112,100.3354,80.53,79,20,4.61,MY,1701193157
49,puerto natales,-51.7236,-72.4875,46.85,81,75,24.16,CL,1701193213
50,weyburn,49.6668,-103.8511,34.02,69,52,14.97,CA,1701193213
51,college,64.8569,-147.8028,19.45,89,40,0.0,US,1701193213
52,aasiaat,68.7098,-52.8699,11.26,79,91,18.41,GL,1701193213
53,aldenhoven,50.9,6.2833,34.16,85,20,4.61,DE,1701193213
54,hermanus,-34.4187,19.2345,62.98,74,32,9.55,ZA,1701193214
55,port-aux-francais,-49.35,70.2167,40.44,98,100,34.81,TF,1701193214
56,trondheim,63.4305,10.3951,23.09,75,100,2.42,NO,1701193214
57,ribeira grande,38.5167,-28.7,66.78,94,75,17.0,PT,1701193214
58,itamaraca,-7.7478,-34.8256,86.05,61,42,10.67,BR,1701193215
59,hamilton,39.1834,-84.5333,28.06,61,100,9.22,US,1701192969
60,teplodar,46.5059,30.3252,46.6,89,98,26.22,UA,1701193215
61,yellowknife,62.456,-114.3525,7.29,90,75,2.3,CA,1701193215
62,lata,40.1629,-8.3327,61.81,93,99,4.16,PT,1701193216
63,richards bay,-28.783,32.0377,79.14,79,82,11.54,ZA,1701193216
64,mary,37.0,62.5,64.74,26,91,23.55,TM,1701193216
65,luco dei marsi,41.957,13.4736,47.88,83,67,3.02,IT,1701193216
66,tarapur,19.85,72.7,75.36,71,0,9.84,IN,1701193217
67,touros,-5.1989,-35.4608,81.79,68,99,13.62,BR,1701193217
68,invercargill,-46.4,168.35,46.02,80,100,5.01,NZ,1701193217
69,bilibino,68.0546,166.4372,-19.28,100,99,2.08,RU,1701193217
70,edinburgh of the seven seas,-37.0676,-12.3116,57.69,81,84,18.86,SH,1701193218
71,yuzhno-kurilsk,44.0306,145.8556,38.37,74,92,23.33,RU,1701193218
72,xinqing,48.2333,129.5,-5.13,97,83,3.91,CN,1701193218
73,ushuaia,-54.8,-68.3,60.46,33,40,9.22,AR,1701193019
74,port alfred,-33.5906,26.891,68.18,83,25,8.99,ZA,1701193218
75,petropavlovsk-kamchatsky,53.0452,158.6483,15.46,86,0,13.42,RU,1701193219
76,al mutayrifi,25.4788,49.5576,73.74,50,5,13.4,SA,1701193219
77,porto novo,6.4965,2.6036,84.02,80,97,7.72,BJ,1701193219
78,waimalu,21.4047,-157.9433,72.01,95,75,5.75,US,1701193220
79,yei,4.095,30.6779,72.34,75,73,1.72,SS,1701193220
80,marka,1.7159,44.7717,80.31,81,72,13.82,SO,1701193220
81,guerrero negro,27.9769,-114.0611,68.79,58,100,2.84,MX,1701193221
82,shimanovsk,52.0,127.7,-4.13,84,93,4.27,RU,1701193221
83,mendoza,-32.8908,-68.8272,87.33,42,40,12.66,AR,1701193221
84,sitka,57.0531,-135.33,39.09,87,75,5.75,US,1701193221
85,saipan,15.1355,145.701,81.3,83,75,12.66,MP,1701193222
86,hobyo,5.3505,48.5268,80.96,73,100,16.46,SO,1701193222
87,isafjordur,66.0755,-23.124,30.24,74,0,0.0,IS,1701193222
88,salinopolis,-0.6136,-47.3561,85.35,65,56,13.71,BR,1701193222
89,papatowai,-46.5619,169.4708,46.45,72,95,11.86,NZ,1701193223
90,barmer,25.75,71.3833,67.57,40,0,8.93,IN,1701193223
91,kota kinabalu,5.9749,116.0724,76.98,88,20,3.44,MY,1701193223
92,dubbo,-32.25,148.6167,64.53,94,100,9.22,AU,1701193224
93,talnakh,69.4865,88.3972,-10.88,99,43,4.34,RU,1701193113
94,taltal,-25.4,-70.4833,67.91,68,17,9.69,CL,1701193224
95,coahuayana de hidalgo,18.7,-103.6583,87.87,52,100,2.8,MX,1701193224
96,san mateo del mar,16.2,-95.0,81.55,66,64,34.47,MX,1701193225
97,akdepe,42.0551,59.3788,46.49,69,100,15.48,TM,1701193225
98,tommot,58.9564,126.2925,1.81,93,100,9.82,RU,1701193225
99,thompson,55.7435,-97.8558,6.96,78,75,2.3,CA,1701193226
100,sandpoint,48.2766,-116.5533,37.72,74,0,0.0,US,1701193226
101,poso,-1.3959,120.7524,77.11,88,94,4.21,ID,1701193165
102,ilulissat,69.2167,-51.1,19.42,63,20,31.07,GL,1701193227
103,san casciano in val di pesa,43.6591,11.1895,50.41,87,0,3.44,IT,1701193227
104,la'ie,21.6477,-157.9253,73.36,91,38,6.2,US,1701193227
105,tazacorte,28.629,-17.9293,72.57,79,20,2.3,ES,1701193227
106,guamuchil,25.4667,-108.1,79.68,28,48,4.85,MX,1701193125
107,magadan,59.5667,150.8,6.94,74,99,9.69,RU,1701193228
108,viedma,-40.8135,-62.9967,85.84,20,100,12.37,AR,1701193228
109,iquique,-20.2208,-70.1431,71.64,66,6,9.26,CL,1701193228
110,cukai,4.25,103.4167,76.95,90,100,5.26,MY,1701193160
111,turuntayevo,52.2,107.6167,10.49,95,100,5.17,RU,1701193229
112,tysmenytsya,48.9022,24.8448,32.5,80,100,4.52,UA,1701193229
113,gangapur,26.4833,76.7167,67.32,53,84,6.49,IN,1701193229
114,garachico,28.7781,-17.7646,69.91,53,20,2.3,ES,1701193229
115,tolanaro,-25.0319,46.9987,78.87,83,20,24.16,MG,1701193229
116,tiksi,71.6872,128.8694,1.38,90,100,20.04,RU,1701193230
117,n'zeto,-7.2312,12.8666,76.82,85,100,1.14,AO,1701193230
118,nadi,-17.8,177.4167,77.0,83,20,5.75,FJ,1701193230
119,kertih,4.5141,103.4483,77.02,100,100,0.0,MY,1701193231
120,muroto-misakicho,33.2833,134.15,55.83,58,1,13.56,JP,1701193231
121,new norfolk,-42.7826,147.0587,53.1,97,100,2.51,AU,1701193231
122,khorixas,-20.3667,14.9667,83.1,40,24,22.48,NA,1701193231
123,bardai,11.65,7.2333,81.97,25,53,7.18,NG,1701193231
124,ust'-kulom,61.6864,53.6902,20.12,96,74,5.37,RU,1701193232
125,arendal,58.4615,8.7725,19.2,57,100,13.87,NO,1701193232
126,luwuk,-0.9516,122.7875,78.17,87,97,1.74,ID,1701193232
127,pogar,52.554,33.2591,15.24,97,85,7.52,RU,1701193232
128,hawaiian paradise park,19.5933,-154.9731,72.03,86,0,5.75,US,1701193096
129,yarmouth,41.7057,-70.2286,42.1,48,75,20.0,US,1701193233
130,buka,40.8108,69.1986,58.08,29,79,2.44,UZ,1701193233
131,nuuk,64.1835,-51.7216,32.61,43,100,16.11,GL,1701193183
132,fort st. john,56.2499,-120.8529,37.29,65,75,24.16,CA,1701193213
133,akrehamn,59.2667,5.1833,27.41,54,0,8.05,NO,1701193233
134,myrina,39.8797,25.0742,65.44,68,40,33.38,GR,1701193234
135,sinop,41.7711,34.8709,43.23,57,58,18.03,TR,1701193234
136,ayaviri,-14.8864,-70.5889,60.84,40,84,2.33,PE,1701193234
137,port lincoln,-34.7333,135.8667,59.27,86,94,17.07,AU,1701193234
138,daru,-9.0763,143.2092,78.49,89,100,5.12,PG,1701193235
139,ciudad acuna,29.3232,-100.9522,58.41,41,100,8.05,MX,1701193012
140,dunedin,-45.8742,170.5036,46.8,70,61,8.99,NZ,1701193235
141,dazhou,31.2159,107.5009,57.88,67,100,5.88,CN,1701193057
142,lhokseumawe,5.1801,97.1507,77.61,90,100,5.21,ID,1701193235
143,grand falls-windsor,48.9332,-55.6649,49.5,91,100,11.99,CA,1701193236
144,akureyri,65.6835,-18.0878,31.93,100,75,0.0,IS,1701193164
145,utrik,11.2278,169.8474,80.83,76,88,17.36,MH,1701193236
146,kapuskasing,49.4169,-82.4331,10.49,78,100,13.8,CA,1701193236
147,lebu,-37.6167,-73.65,57.34,72,44,15.79,CL,1701193236
148,tromso,69.6496,18.957,19.42,93,20,2.3,NO,1701193237
149,khandyga,62.6667,135.6,-24.09,98,100,1.61,RU,1701193237
150,hasaki,35.7333,140.8333,45.28,38,1,11.18,JP,1701193237
151,kingston,17.997,-76.7936,86.23,72,75,4.61,JM,1701192957
152,port mathurin,-19.6833,63.4167,77.43,72,9,10.33,MU,1701193238
153,papao,-17.75,-149.55,82.08,84,94,23.91,PF,1701193238
154,gadzhiyevo,69.2551,33.3362,29.39,81,99,18.28,RU,1701193238
155,banda aceh,5.5577,95.3222,78.82,84,100,4.03,ID,1701193238
156,machico,32.7,-16.7667,74.03,80,20,16.11,PT,1701193238
157,taoudenni,22.6783,-3.9836,73.2,12,5,5.84,ML,1701193239
158,maturin,9.75,-63.1767,88.43,56,41,8.52,VE,1701193239
159,arteche,12.2645,125.4048,79.99,90,96,9.86,PH,1701193239
160,whitehorse,60.7161,-135.0538,20.17,68,20,2.3,CA,1701192981
161,brigantine,39.4101,-74.3646,40.01,44,0,23.02,US,1701193239
162,ola,59.5833,151.2833,6.71,76,100,9.82,RU,1701193240
163,gamba,-2.65,10.0,77.54,83,95,5.26,GA,1701193240
164,greenville,35.6127,-77.3663,50.16,38,0,11.5,US,1701193240
165,puerto ayora,-0.7393,-90.3518,80.56,95,75,11.99,EC,1701193240
166,avarua,-21.2078,-159.775,75.25,88,75,17.27,CK,1701193240
167,ca mau,9.1769,105.15,74.77,92,89,6.13,VN,1701193241
168,luderitz,-26.6481,15.1594,72.77,56,85,23.98,NA,1701193241
169,ta`u,-14.2336,-169.5144,80.64,82,100,18.1,AS,1701193241
170,tidjikja,18.5564,-11.4271,79.88,11,20,8.93,MR,1701193241
171,at-bashi,41.1702,75.8106,26.15,57,21,4.07,KG,1701193241
172,susuman,62.7833,148.1667,-18.47,100,100,1.68,RU,1701193242
173,carnarvon,-24.8667,113.6333,70.56,68,54,19.1,AU,1701193242
174,hilo,19.7297,-155.09,78.28,84,0,5.75,US,1701193238
175,punta arenas,-53.15,-70.9167,55.42,47,40,34.52,CL,1701192967
176,vadso,70.0744,29.7487,33.96,75,75,20.71,NO,1701193242
177,ardatov,55.2421,43.097,23.86,94,69,7.54,RU,1701193243
178,morondava,-20.2833,44.2833,80.13,79,3,11.48,MG,1701193243
179,haiku-pauwela,20.9219,-156.3051,74.05,88,0,3.44,US,1701193243
180,jamestown,42.097,-79.2353,27.99,91,100,16.11,US,1701192972
181,flying fish cove,-10.4217,105.6791,78.82,66,66,17.76,CX,1701193244
182,porto sant'elpidio,43.2583,13.7583,48.81,82,36,5.26,IT,1701193244
183,keetmanshoop,-26.5833,18.1333,77.92,25,100,12.66,NA,1701193244
184,mount gambier,-37.8333,140.7667,58.42,86,100,14.09,AU,1701193244
185,tazovsky,67.4667,78.7,3.34,96,100,8.61,RU,1701193245
186,natal,-5.795,-35.2094,80.82,83,40,10.36,BR,1701193148
187,kone,-21.0595,164.8658,70.29,86,100,4.68,NC,1701193245
188,island harbour,50.724,-1.2758,44.92,79,29,1.01,GB,1701193245
189,rawson,-43.3002,-65.1023,74.21,26,23,6.13,AR,1701193245
190,vytegra,61.0064,36.4481,26.37,90,92,8.01,RU,1701193246
191,sukhinichi,54.0999,35.3425,12.02,97,92,6.24,RU,1701193246
192,weno,7.4515,151.8468,82.35,78,40,4.61,FM,1701193246
193,dryden,49.7833,-92.7503,10.69,85,100,12.66,CA,1701193246
194,egilsstadir,65.2653,-14.3948,40.91,75,75,8.05,IS,1701193247
195,bandarbeyla,9.4942,50.8122,79.66,67,67,22.77,SO,1701193247
196,lompoc,34.6391,-120.4579,65.93,53,0,8.05,US,1701193247
197,keflavik,64.0049,-22.5624,35.51,86,75,9.22,IS,1701193247
198,usogorsk,63.4106,48.6872,21.67,93,100,8.99,RU,1701193248
199,lazaro cardenas,17.9583,-102.2,86.74,57,84,4.07,MX,1701193208
200,ancud,-41.8697,-73.8203,54.3,69,14,14.05,CL,1701193248
201,gondar,12.6,37.4667,60.73,49,1,3.65,ET,1701193248
202,happy valley-goose bay,53.3168,-60.3315,39.51,81,75,11.5,CA,1701193248
203,ust-nera,64.5667,143.2,-7.82,99,100,2.15,RU,1701193249
204,essaouira,31.5125,-9.77,69.3,45,21,9.22,MA,1701193249
205,sault ste. marie,46.5168,-84.3333,25.36,89,100,6.91,CA,1701193178
206,muynoq,43.7683,59.0214,46.17,71,99,17.52,UZ,1701193249
207,minas de marcona,-15.2119,-75.1103,69.89,54,35,17.4,PE,1701193249
208,venice,27.0998,-82.4543,60.84,53,0,11.5,US,1701193159
209,dalianwan,39.0286,121.695,33.84,60,20,2.24,CN,1701193250
210,port saint john's,-31.6229,29.5448,72.19,90,92,18.25,ZA,1701193250
211,waingapu,-9.6567,120.2641,81.01,81,52,1.28,ID,1701193251
212,champerico,14.3,-91.9167,93.74,70,89,6.13,GT,1701193251
213,gurupa,-1.405,-51.64,90.91,48,87,4.65,BR,1701193251
214,hirara,24.8,125.2833,70.07,68,20,13.8,JP,1701193251
215,zhangatas,43.5667,69.75,58.12,36,71,11.56,KZ,1701193252
216,port elizabeth,-33.918,25.5701,68.29,89,0,19.57,ZA,1701193252
217,suva,-18.1416,178.4415,76.48,94,75,3.44,FJ,1701193252
218,vernon,50.2581,-119.2691,38.01,60,10,2.3,CA,1701193055
219,lihue,21.9789,-159.3672,70.45,87,75,4.61,US,1701193253
220,tevriz,57.509,72.4042,24.78,79,100,7.92,RU,1701193253
221,iyo,33.7514,132.7014,52.07,60,19,5.06,JP,1701193253
222,yeniseysk,58.4497,92.1703,1.94,78,98,1.01,RU,1701193253
223,port macquarie,-31.4333,152.9167,64.89,82,90,11.56,AU,1701193121
224,badger,64.8,-147.5333,19.36,90,20,0.0,US,1701192956
225,yulinshi,38.2906,109.7494,23.22,36,13,15.41,CN,1701193254
226,vila velha,-20.3297,-40.2925,85.95,76,20,13.8,BR,1701193254
227,colares,38.7992,-9.4469,64.76,97,75,14.0,PT,1701193255
228,kapa'a,22.0752,-159.319,71.19,85,75,4.61,US,1701193255
229,urangan,-25.3,152.9,71.1,89,22,2.39,AU,1701193255
230,inhambane,-23.865,35.3833,80.58,78,20,14.97,MZ,1701193255
231,nova sintra,14.8667,-24.7167,71.76,69,24,10.94,CV,1701193255
232,tunduma,-9.3,32.7667,64.42,80,92,6.96,TZ,1701193256
233,dakhla,23.6848,-15.958,73.42,33,0,12.66,EH,1701193256
234,petropavlovka,50.6114,105.3196,-0.38,87,57,6.44,RU,1701193256
235,zhytkavichy,52.2168,27.8561,25.86,93,100,10.18,BY,1701193256
236,conception bay south,47.4999,-52.9981,49.55,96,100,34.99,CA,1701193256
237,envira,-7.3,-70.2167,88.16,56,73,4.79,BR,1701193257
238,datong,40.0936,113.2914,14.38,34,1,11.95,CN,1701192960
239,stanley,54.868,-1.6985,35.78,91,20,9.22,GB,1701193257
240,wulingyuan,29.3494,110.5441,53.06,69,85,1.3,CN,1701193257
241,baltinava,56.95,27.65,21.16,96,82,7.25,LV,1701193257
242,la passe,45.5549,-0.8967,44.83,70,7,2.48,FR,1701193258
243,batroun,34.2553,35.6581,55.54,85,7,2.68,LB,1701193258
244,alwar,27.5667,76.6,64.76,57,49,2.01,IN,1701193258
245,kununurra,-15.7667,128.7333,80.58,78,83,6.91,AU,1701193258
246,port augusta,-32.5,137.7667,61.93,72,89,18.72,AU,1701193259
247,sechura,-5.5569,-80.8222,80.92,54,5,15.28,PE,1701193259
248,brownwood,31.7093,-98.9912,59.0,34,100,3.44,US,1701192981
249,yeraliyev,43.2,51.65,43.93,62,99,5.21,KZ,1701193259
250,westport,41.1415,-73.3579,40.82,43,40,16.11,US,1701193092
251,kirensk,57.7853,108.1119,0.82,99,100,2.33,RU,1701193260
252,itaituba,-4.2761,-55.9836,93.36,49,20,6.91,BR,1701193260
253,kaa-khem,51.6833,94.7333,-3.12,95,63,3.6,RU,1701193260
254,kavalerovo,44.2661,135.0572,6.13,75,44,14.61,RU,1701193260
255,brisas de zicatela,15.8369,-97.0419,86.52,62,40,5.75,MX,1701193261
256,san antonio oeste,-40.7319,-64.9477,74.46,35,100,15.3,AR,1701193261
257,kailua-kona,19.6406,-155.9956,73.51,83,100,5.75,US,1701193261
258,grand gaube,-20.0064,57.6608,77.4,89,19,8.75,MU,1701193261
259,nguigmi,14.2495,13.1092,82.38,20,36,14.16,NE,1701193262
260,queenstown,-31.8976,26.8753,62.6,77,49,10.36,ZA,1701193262
261,mar del plata,-38.0023,-57.5575,76.08,87,0,23.02,AR,1701193262
262,el reno,35.5323,-97.955,55.27,40,0,13.8,US,1701193262
263,tympaki,35.0729,24.7685,66.11,66,93,10.0,GR,1701193262
264,aleksandrovsk-sakhalinskiy,50.8975,142.1561,8.56,75,100,12.17,RU,1701193263
265,kiama,-34.6833,150.8667,69.39,96,100,7.0,AU,1701193263
266,formosa do rio preto,-11.0483,-45.1931,100.17,16,64,5.19,BR,1701193263
267,ishinomaki,38.4167,141.3,39.16,83,52,13.85,JP,1701193102
268,sorong,-0.8833,131.25,80.24,82,100,5.61,ID,1701193264
269,westerland,54.9079,8.3033,27.01,86,100,5.75,DE,1701193264
270,acapulco de juarez,16.8634,-99.8901,89.42,62,75,0.0,MX,1701193073
271,sumusta as sultani,28.9167,30.85,64.11,39,100,9.28,EG,1701193264
272,dudinka,69.4058,86.1778,-14.12,100,56,3.67,RU,1701193103
273,saldanha,-33.0117,17.9442,68.05,77,2,15.77,ZA,1701193265
274,utete,-7.986,38.758,74.86,89,32,4.54,TZ,1701193265
275,markaz-e woluswali-ye achin,34.1258,70.7078,56.82,38,11,1.1,AF,1701193265
276,al kharijah,25.4514,30.5464,63.36,42,100,9.1,EG,1701193265
277,selfoss,63.9331,-20.9971,34.52,85,100,6.6,IS,1701193266
278,kirakira,-10.4544,161.9205,79.36,87,86,7.14,SB,1701193266
279,san patricio,28.017,-97.5169,57.9,36,69,4.99,US,1701193266
280,san luis rio colorado,32.4631,-114.7767,68.9,19,97,7.78,MX,1701193266
281,whakatane,-37.9585,176.9854,57.78,89,30,1.01,NZ,1701193267
282,cadale,2.7603,46.3222,82.4,74,78,17.34,SO,1701193267
283,al jawf,29.5,38.75,56.8,53,100,8.39,SA,1701193267
284,psebay,44.1234,40.8107,33.3,70,18,5.08,RU,1701193267
285,klyuchi,52.2667,79.1667,30.42,63,100,10.25,RU,1701193268
286,yangjiang,21.85,111.9667,68.72,69,60,3.83,CN,1701193155
287,pisco,-13.7,-76.2167,73.45,68,0,11.5,PE,1701193268
288,hirtshals,57.5881,9.9592,27.0,88,100,18.61,DK,1701193268
289,waitara,-38.925,174.25,57.49,82,42,13.65,NZ,1701193268
290,yuanping,38.7153,112.7575,21.49,45,1,8.9,CN,1701193269
291,north side,19.35,-81.2,87.87,66,20,12.66,KY,1701193269
292,amga,60.8953,131.9608,-17.41,99,100,2.08,RU,1701193269
293,oued fodda,36.185,1.533,65.86,59,75,11.5,DZ,1701193269
294,ketchikan,55.3422,-131.6461,44.58,87,40,6.91,US,1701193269
295,praia da vitoria,38.7333,-27.0667,68.25,77,75,7.58,PT,1701193270
296,aykhal,66.0,111.5,-3.33,91,88,7.7,RU,1701193270
297,greymouth,-42.4667,171.2,53.94,92,100,3.71,NZ,1701193270
298,nuku'alofa,-21.1333,-175.2,75.54,100,20,2.3,TO,1701193271
299,remire-montjoly,4.9167,-52.2667,89.64,62,20,13.8,GF,1701193271
300,laguna,38.421,-121.4238,62.08,70,0,4.61,US,1701193271
301,coronel dorrego,-38.7187,-61.2873,84.04,48,91,6.42,AR,1701193271
302,portage la prairie,49.9728,-98.2926,33.12,65,75,17.27,CA,1701193016
303,fale old settlement,-9.3852,-171.2468,81.97,77,98,15.12,TK,1701193272
304,east london,-33.0153,27.9116,68.94,83,75,11.5,ZA,1701193272
305,kodiak,57.79,-152.4072,42.31,70,100,19.57,US,1701193272
306,ballina,-28.8667,153.5667,66.78,94,100,5.68,AU,1701193273
307,kempsey,-31.0833,152.8333,64.94,95,82,1.01,AU,1701193273
308,yaren,-0.5472,166.916,84.09,72,97,5.37,NR,1701193273
309,xai-xai,-25.0519,33.6442,77.88,76,0,10.89,MZ,1701193273
310,midvagur,62.0511,-7.1939,38.23,75,100,12.66,FO,1701193274
311,nadym,65.5333,72.5167,21.38,96,100,11.9,RU,1701193274
312,srandakan,-7.9386,110.2506,77.36,84,99,4.29,ID,1701193274
313,santa cruz,-17.8,-63.1667,90.86,55,40,27.63,BO,1701193175
314,astrakhan,46.3497,48.0408,36.91,93,0,4.47,RU,1701193274
315,wangkui,46.8333,126.5,-4.94,97,90,2.33,CN,1701193275
316,laojunmiao,39.8333,97.7333,24.53,56,49,6.04,CN,1701193275
317,nemuro,43.3236,145.575,36.01,77,46,22.17,JP,1701193275
318,troitsko-pechorsk,62.7084,56.1964,12.69,91,39,5.01,RU,1701193275
319,gejiu,23.306,103.1635,42.71,94,12,1.95,CN,1701193276
320,raja,8.4596,25.678,83.75,23,82,4.52,SS,1701193276
321,fortuna,40.5982,-124.1573,50.99,74,0,8.05,US,1701193276
322,kamiiso,41.8167,140.65,31.05,71,76,19.3,JP,1701193276
323,severo-yeniseyskiy,60.3725,93.0408,0.57,92,100,1.99,RU,1701193277
324,katlenburg-lindau,51.6833,10.1,32.13,90,98,1.01,DE,1701193277
325,hami,42.8,93.45,36.41,31,2,5.86,CN,1701193150
326,shevchenko,48.5,35.0,36.72,87,91,13.58,UA,1701193102
327,uvarovo,51.9849,42.2615,25.65,78,40,5.73,RU,1701193278
328,tucuma,-0.1833,-50.05,88.7,56,85,10.27,BR,1701193278
329,tuljapur,18.0,76.0833,74.01,73,84,7.11,IN,1701193278
330,lautoka,-17.6167,177.4667,76.86,83,20,5.75,FJ,1701193167
331,plymouth,41.8334,-70.8328,40.14,46,75,11.5,US,1701193007
332,truro,50.2653,-5.0544,47.16,81,40,3.44,GB,1701193076
333,saynshand,44.8824,110.1163,-0.15,82,1,8.48,MN,1701193280
334,asmar,35.0333,71.3581,57.0,41,23,4.74,AF,1701193281
335,imbituba,-28.24,-48.6703,66.69,97,100,9.44,BR,1701193281
336,p'yongsong,39.2464,125.8719,24.13,42,86,2.82,KP,1701193281
337,iturama,-19.7281,-50.1956,90.27,41,100,4.14,BR,1701193281
338,garoowe,8.4054,48.4845,79.03,44,99,14.88,SO,1701193282
339,rio branco,-9.9747,-67.81,74.01,100,75,4.61,BR,1701193282
340,norderney,53.7,7.15,33.98,87,95,21.36,DE,1701193282
341,qaryat suluq,31.6682,20.2521,62.44,46,15,10.71,LY,1701193283
342,jayapura,-2.5333,140.7,76.39,89,100,1.72,ID,1701193283
343,portland,45.5234,-122.6762,42.82,70,20,13.0,US,1701193090
344,fredericton,45.9454,-66.6656,34.84,73,75,8.05,CA,1701193283
345,hilvan,37.5869,38.9551,41.88,52,0,5.75,TR,1701193284
346,arawa,-6.2132,155.5367,77.05,91,89,2.64,PG,1701193284
347,coquimbo,-29.9533,-71.3436,64.13,72,100,13.8,CL,1701193284
348,jinjiang,24.8198,118.5741,67.01,65,26,10.09,CN,1701193284
349,al bawiti,28.3492,28.8659,62.08,43,97,5.77,EG,1701193285
350,dauphin,51.1494,-100.0502,32.14,74,20,23.02,CA,1701193285
351,siwa oasis,29.2041,25.5195,61.39,46,88,6.87,EG,1701193285
352,barranca,-10.75,-77.7667,71.31,73,44,11.54,PE,1701193285
353,leona vicario,20.9667,-87.1917,82.27,89,79,6.24,MX,1701193286
354,idri,27.5,13.2667,63.05,28,0,4.76,LY,1701193286
355,pandan,14.0453,124.1694,80.38,89,80,12.77,PH,1701193286
356,mermoz boabab,14.7065,-17.4758,86.56,63,22,16.15,SN,1701193286
357,vila franca do campo,37.7167,-25.4333,66.61,99,94,5.7,PT,1701193286
358,igarka,67.4667,86.5833,-3.44,98,94,7.23,RU,1701193287
359,uturoa,-16.7333,-151.4333,80.49,78,50,17.63,PF,1701193287
360,anadyr,64.75,177.4833,25.3,86,75,24.61,RU,1701193287
361,blenheim,-41.516,173.9528,51.53,93,96,1.99,NZ,1701193287
362,nema,57.5067,50.5011,22.77,95,100,5.86,RU,1701193288
363,aral,40.5156,81.2636,39.27,28,29,6.6,CN,1701193288
364,menongue,-14.6585,17.691,72.68,58,99,3.22,AO,1701193288
365,berdigestyakh,62.0989,126.6992,-3.17,95,100,8.32,RU,1701193288
366,tual,-5.6667,132.75,82.94,72,100,2.59,ID,1701193289
367,domoni,-12.2569,44.5319,80.01,80,21,5.95,KM,1701193289
368,dyurtyuli,55.4911,54.8688,31.5,99,100,6.93,RU,1701193289
369,buala,-8.145,159.5921,78.4,86,96,3.31,SB,1701193289
370,castillos,-34.1667,-53.8333,72.99,76,89,15.39,UY,1701193289
371,karratha,-20.7377,116.8463,74.57,54,1,19.44,AU,1701193290
372,zakamensk,50.3741,103.2863,-4.67,96,17,3.09,RU,1701193290
373,scarborough,54.2797,-0.4044,38.77,86,32,1.99,GB,1701193168
374,burang,30.25,81.1667,16.27,94,81,1.92,CN,1701193290
375,al ghayzah,16.2079,52.176,78.64,62,70,6.55,YE,1701193290
376,san antonio,29.4241,-98.4936,60.15,40,75,6.91,US,1701193291
377,rabigh,22.7986,39.0349,82.29,52,4,8.97,SA,1701193291
378,tura,25.5198,90.2201,65.62,71,87,2.95,IN,1701193291
379,mukalla,14.5425,49.1242,77.74,74,89,3.24,YE,1701193291
380,ja ela,7.0744,79.8919,75.18,100,75,3.44,LK,1701193292
381,calingasta,-31.3308,-69.4078,92.98,5,0,10.49,AR,1701193292
382,stephenville,32.2207,-98.2023,57.87,34,75,5.75,US,1701193109
383,ternate,0.8,127.4,80.01,81,100,3.87,ID,1701193185
384,lerwick,60.1545,-1.1494,35.6,66,99,12.24,GB,1701193292
385,kaliganj,23.4095,89.1402,71.8,46,12,3.8,BD,1701193293
386,lorengau,-2.0226,147.2712,80.49,80,74,2.71,PG,1701193293
387,khanty-mansiysk,61.0042,69.0019,28.51,80,0,7.0,RU,1701193293
388,quellon,-43.1167,-73.6167,56.26,66,92,12.48,CL,1701193293
389,kruisfontein,-34.0033,24.7314,62.89,82,85,19.44,ZA,1701193294
390,port hedland,-20.3167,118.5667,77.05,78,75,12.66,AU,1701193294
391,ramos arizpe,25.55,-100.9667,65.82,63,18,4.59,MX,1701193294
392,chishmy,54.5765,55.3764,32.23,98,100,8.16,RU,1701193294
393,cidreira,-30.1811,-50.2056,66.97,92,100,18.32,BR,1701193295
394,zeya,53.75,127.2667,1.49,52,93,3.69,RU,1701193295
395,sabang,5.8933,95.3214,80.06,80,100,5.91,ID,1701193295
396,korla,41.7597,86.1469,39.78,40,100,5.7,CN,1701193295
397,al kharj,24.155,47.3346,72.18,37,1,13.85,SA,1701193296
398,tomatlan,19.9333,-105.25,91.71,38,100,2.48,MX,1701193296
399,buy,58.4786,41.53,19.65,94,98,7.27,RU,1701193296
400,porto murtinho,-21.6989,-57.8825,96.55,39,48,8.81,BR,1701193297
401,kalymnos,36.95,26.9833,63.93,82,40,17.27,GR,1701193297
402,naliya,23.2667,68.8333,70.47,50,0,6.08,IN,1701193297
403,brumunddal,60.881,10.9395,19.08,79,100,10.42,NO,1701193298
404,sanctuary point,-35.1114,150.629,68.76,97,100,20.78,AU,1701193298
405,napier,-39.4833,176.9167,61.29,61,25,1.01,NZ,1701193298
406,chumphon,10.3333,98.8333,70.41,93,100,3.02,TH,1701193299
407,lobujya,27.95,86.8167,12.36,89,100,2.04,NP,1701193299
408,slave lake,55.2834,-114.769,33.78,86,0,4.61,CA,1701193299
409,kandyagash,49.4744,57.4233,31.84,84,100,17.72,KZ,1701193299
410,ulladulla,-35.35,150.4667,65.77,96,100,24.18,AU,1701193300
411,contamana,-7.3333,-75.0167,100.44,28,30,4.92,PE,1701193300
412,olyokminsk,60.3736,120.4264,1.99,89,100,10.65,RU,1701193300
413,richfield,44.8833,-93.283,23.47,67,75,10.36,US,1701193296
414,sampao,7.5939,125.6611,74.12,97,69,3.69,PH,1701193300
415,kolonia town,6.964,158.206,78.8,94,100,10.36,FM,1701193301
416,alofi,-19.0595,-169.9187,71.49,88,75,2.3,NU,1701193301
417,jutai,-5.1833,-68.9,94.14,47,34,2.15,BR,1701193301
418,ewo,-0.8725,14.8206,73.85,91,82,4.34,CG,1701193301
419,levuka,50.1834,-105.4011,37.13,60,20,20.71,CA,1701193302
420,mossel bay,-34.1831,22.146,64.33,61,86,19.35,ZA,1701193302
421,sandnessjoen,66.0217,12.6316,32.41,55,75,13.8,NO,1701193143
422,sur,22.5667,59.5289,76.28,67,0,8.93,OM,1701193302
423,barcelos,41.5388,-8.6151,59.14,95,100,8.05,PT,1701193303
424,shingu,33.7333,135.9833,43.68,76,1,5.7,JP,1701193303
425,manicore,-5.8092,-61.3003,92.21,44,80,3.4,BR,1701193303
426,nogliki,51.8333,143.1667,5.34,79,95,8.99,RU,1701193303
427,turabah,21.2141,41.6331,76.86,21,0,11.65,SA,1701193304
428,lys'va,58.1086,57.8053,31.3,93,100,7.87,RU,1701193304
429,anna regina,7.2644,-58.5077,84.58,62,1,8.95,GY,1701193304
430,ain sefra,32.75,-0.5833,57.85,21,100,3.49,DZ,1701193304
431,pangody,65.85,74.4859,18.61,95,100,11.92,RU,1701193305
432,cole harbour,44.6724,-63.4751,38.97,84,100,10.36,CA,1701193305
433,esquel,-42.9,-71.3167,58.93,35,6,19.73,AR,1701193273
434,manokwari,-0.8667,134.0833,78.49,81,100,5.1,ID,1701193306
435,kilindoni,-7.9139,39.6668,80.8,78,94,11.61,TZ,1701193306
436,bafra,41.5678,35.9069,46.98,46,45,12.19,TR,1701193306
437,moab,38.5733,-109.5498,32.61,67,0,3.31,US,1701193199
438,vilyuchinsk,52.9306,158.4028,16.93,87,78,7.61,RU,1701193307
439,sehore,23.2,77.0833,66.47,85,26,5.21,IN,1701193307
440,lagonegro,40.1283,15.7615,48.87,76,87,17.83,IT,1701193307
441,floro,61.5996,5.0328,22.96,54,0,4.61,NO,1701193308
442,rongelap,11.1635,166.8941,81.28,75,100,20.92,MH,1701193308
443,constantia,44.1833,28.65,48.7,86,100,34.72,RO,1701193308
444,veraval,20.9,70.3667,74.84,63,1,4.5,IN,1701193308
445,naha,26.2125,127.6811,66.11,59,0,8.05,JP,1701193309
446,olinda,-8.0089,-34.8553,85.73,58,40,9.22,BR,1701193118
447,macas,-2.3167,-78.1167,73.15,88,100,6.91,EC,1701193309
448,vorgashor,67.5833,63.95,5.54,92,98,7.11,RU,1701193309
449,puerto ayacucho,5.6639,-67.6236,91.4,53,10,3.11,VE,1701193310
450,campo gallo,-26.5833,-62.85,99.75,30,0,8.7,AR,1701193310
451,barguzin,53.6167,109.6167,3.88,96,89,2.46,RU,1701193310
452,dzhambeyty,50.2536,52.595,30.27,74,74,8.59,KZ,1701193311
453,bac lieu,9.285,105.7244,76.87,88,100,12.12,VN,1701193311
454,swakopmund,-22.6833,14.5333,70.65,79,49,7.0,NA,1701193013
455,sinabang,2.4803,96.3801,79.57,85,100,8.32,ID,1701193311
456,prineville,44.2999,-120.8345,24.91,39,2,4.88,US,1701193311
457,kamina,-8.7386,24.9906,64.8,97,91,4.29,CD,1701193312
458,san ignacio de velasco,-16.3667,-60.95,93.67,36,87,6.71,BO,1701193312
459,ashland,40.8167,-82.2665,24.12,86,98,16.62,US,1701193312
460,mirny,62.5353,113.9611,-1.77,77,31,8.99,RU,1701193312
461,verneuil-sur-avre,48.7395,0.9273,37.0,88,50,5.66,FR,1701193313
462,baqubah,33.7485,44.6554,58.28,41,1,9.17,IQ,1701193313
463,benguela,-12.5763,13.4055,78.62,83,98,7.11,AO,1701193313
464,walvis bay,-22.9575,14.5053,70.75,68,0,8.05,NA,1701193313
465,marivan,35.5219,46.176,42.28,79,8,0.47,IR,1701193313
466,geraldton,-28.7667,114.6,63.01,77,51,0.0,AU,1701193314
467,kill devil hills,36.0307,-75.676,46.98,47,40,18.41,US,1701193314
468,pacific grove,36.6177,-121.9166,63.64,45,0,4.61,US,1701193314
469,hotan,37.0997,79.9269,40.08,26,9,2.59,CN,1701193314
470,singrauli,24.1997,82.6753,59.94,91,45,1.77,IN,1701193314
471,qujing,25.4833,103.7833,45.95,92,59,6.91,CN,1701193315
472,vizianagaram,18.1167,83.4167,74.71,85,39,3.56,IN,1701193315
473,kadirli,37.3739,36.0961,49.39,51,7,4.7,TR,1701193315
474,maputo,-25.9653,32.5892,80.28,78,20,14.97,MZ,1701193291
475,san luis de la loma,17.2706,-100.8939,85.46,63,90,2.46,MX,1701193315
476,saint-philippe,-21.3585,55.7679,74.79,84,51,8.97,RE,1701193316
477,kattivakkam,13.2167,80.3167,82.08,87,74,9.24,IN,1701193316
478,malvan,16.0667,73.4667,78.69,83,7,9.06,IN,1701193316
479,dabakala,8.3667,-4.4333,82.92,66,55,3.09,CI,1701193316
480,yuncheng,35.0231,110.9928,45.34,37,100,6.02,CN,1701193316
481,casas grandes,30.3667,-107.95,54.5,53,100,4.85,MX,1701193317
482,brokopondo,4.75,-55.1667,90.16,46,2,1.43,SR,1701193317
483,san angelo,31.4638,-100.437,60.3,43,0,3.0,US,1701193222
484,begoro,6.3871,-0.3774,75.16,85,78,3.87,GH,1701193317
485,autazes,-3.5797,-59.1306,93.29,43,68,5.91,BR,1701193318
486,makoua,0.0069,15.6333,73.18,96,63,2.91,CG,1701193318
487,maceio,-9.6658,-35.7353,89.04,51,40,13.8,BR,1701193318
488,sanibel,26.449,-82.0223,66.02,62,89,7.0,US,1701193318
489,kristiansund,63.1115,7.732,23.65,80,75,2.3,NO,1701193112
490,karlivka,49.4567,35.1295,30.88,85,94,13.11,UA,1701193319
491,cibitoke,-2.8833,29.25,64.71,87,85,2.13,BI,1701193319
492,kourou,5.1552,-52.6478,89.65,65,49,8.59,GF,1701193319
493,general conesa,-40.1,-64.4333,87.62,24,100,11.61,AR,1701193320
494,chegdomyn,51.1167,133.0167,-2.15,97,99,0.87,RU,1701193320
495,mpulungu,-8.7623,31.1141,73.6,88,95,3.49,ZM,1701193320
496,sovetskiy,61.3614,63.5842,28.89,98,99,3.0,RU,1701193321
497,mount washington,38.0501,-85.5458,33.28,52,0,9.44,US,1701193321
498,yatou,37.15,122.3833,31.68,70,88,2.42,CN,1701193321
499,isabel segunda,18.1491,-65.4427,87.58,92,4,5.01,PR,1701193321
500,mahriz,31.5917,54.4318,54.1,31,0,4.27,IR,1701193322
501,novofedorivka,46.1713,32.3178,50.0,69,99,30.82,UA,1701193322
502,fandriana,-20.2333,47.3833,66.61,78,15,2.51,MG,1701193322
503,cabo san lucas,22.8909,-109.9124,83.75,60,0,3.44,MX,1701193131
504,mbaiki,3.8678,17.9892,74.23,90,66,2.44,CF,1701193323
505,semporna,4.4818,118.6112,78.1,87,31,1.54,MY,1701193030
506,verkhotur'ye,58.8627,60.8054,25.29,99,98,5.17,RU,1701193324
507,labrador city,52.9463,-66.9114,24.71,80,75,10.36,CA,1701193324
508,iaciara,-14.0958,-46.6317,100.74,15,72,6.29,BR,1701193324
509,priozersk,61.0393,30.1291,34.0,86,99,9.24,RU,1701193324
510,las vegas,36.175,-115.1372,55.81,26,0,3.44,US,1701193089
511,dul'durga,50.6761,113.5931,1.69,84,87,10.11,RU,1701193325
512,ngorongoro,-3.2397,35.4875,59.61,70,89,2.53,TZ,1701193325
513,port-gentil,-0.7193,8.7815,82.36,78,75,6.91,GA,1701193326
514,pointe-noire,-4.7761,11.8635,78.8,84,100,4.14,CG,1701193326
515,brentwood,40.7812,-73.2462,40.84,38,75,21.85,US,1701193326
516,tuy hoa,13.0833,109.3,73.02,86,91,8.14,VN,1701193327
517,darwin,-12.4611,130.8418,82.38,84,70,3.44,AU,1701193327
518,yabelo,4.8833,38.0833,63.99,50,71,8.28,ET,1701193327
519,oropesa del mar,40.1,0.15,66.38,59,95,10.13,ES,1701193328
520,tabou,4.423,-7.3528,78.67,87,82,3.51,CI,1701193328
521,labytnangi,66.6572,66.4183,15.04,93,100,13.56,RU,1701193328
522,i-n-salah,27.1935,2.4607,66.67,23,100,0.45,DZ,1701193329
523,bubaque,11.2833,-15.8333,82.85,63,26,12.68,GW,1701193329
524,kodinsk,58.6881,99.1844,-6.03,100,91,3.09,RU,1701193329
525,angaur state,6.906,134.13,84.16,77,87,15.99,PW,1701193330
526,kokshetau,53.2775,69.3883,28.31,84,77,7.87,KZ,1701193330
527,diego de almagro,-26.3667,-70.05,84.74,14,0,13.62,CL,1701193330
528,heroica guaymas,27.9333,-110.9,74.44,56,40,0.0,MX,1701193239
529,isfahan,32.6572,51.6776,53.24,35,1,4.94,IR,1701193331
530,andkhoy,36.9529,65.1238,68.04,25,97,8.41,AF,1701193331
531,kuala belait,4.5833,114.1833,77.16,85,71,1.83,BN,1701193331
532,malango,-2.9627,119.9001,67.53,97,96,1.9,ID,1701193332
533,sydney,-33.8679,151.2073,70.9,87,75,18.41,AU,1701193209
534,hadibu,12.65,54.0333,79.48,65,100,14.9,YE,1701193332
535,cherlak,54.155,74.8055,26.92,81,100,13.44,RU,1701193332
536,acarau,-2.8856,-40.12,86.7,63,34,19.01,BR,1701193125
537,menaka,15.9182,2.4022,87.66,11,23,8.86,ML,1701193333
538,taishan,22.2514,112.7799,69.91,70,76,2.8,CN,1701193333
539,ambon,-3.6954,128.1814,78.08,15,40,0.0,ID,1701193334
540,dellys,36.9172,3.9131,62.33,82,88,11.27,DZ,1701193334
541,kish,26.5578,54.0194,79.07,73,1,11.5,IR,1701193334
542,lionel town,17.8101,-77.2406,85.89,63,24,8.46,JM,1701193335
543,blagoveshchenka,52.8333,79.8667,30.24,63,100,11.56,RU,1701193335
544,chul'man,56.8479,124.9104,-0.02,95,100,14.18,RU,1701193335
545,verkhniye kigi,55.4083,58.6044,30.04,98,100,1.7,RU,1701193336
546,ma'rib,15.4591,45.3253,71.04,28,79,2.59,YE,1701193336
547,mata-utu,-13.2816,-176.1745,83.32,79,87,23.47,WF,1701193337
548,orkney,-26.9802,26.6727,74.77,42,83,7.38,ZA,1701193337
549,"laikit, laikit ii (dimembe)",1.4792,124.9735,74.25,94,40,1.14,ID,1701193337
550,sungjibaegam,41.2428,128.7989,-3.8,89,69,6.31,KP,1701193338
551,camocim,-2.9022,-40.8411,85.55,66,47,16.37,BR,1701193338
552,mercedes,-34.6515,-59.4307,88.86,28,47,10.74,AR,1701193339
553,pionerskiy,54.9508,20.2275,26.15,58,100,15.3,RU,1701193339
554,sangkhla buri,15.1555,98.4536,67.15,89,42,1.68,TH,1701193340
555,arraial do cabo,-22.9661,-42.0278,84.16,74,20,24.16,BR,1701193340
556,la ronge,55.1001,-105.2842,34.05,64,20,12.66,CA,1701193341
557,holualoa,19.6228,-155.9522,69.78,84,100,5.75,US,1701193341
558,crane,31.3974,-102.3501,52.05,40,27,9.6,US,1701193342
559,nabire,-3.3667,135.4833,77.13,85,100,12.71,ID,1701193342
560,keelung,25.1283,121.7419,71.1,69,5,18.99,TW,1701193112
561,nashik,19.9833,73.8,67.98,83,0,4.32,IN,1701193343
562,sayat,38.7839,63.8803,64.27,28,95,7.94,TM,1701193343
563,krasnoye-na-volge,57.5125,41.2419,20.01,94,93,9.95,RU,1701193344
564,ploudalmezeau,48.5333,-4.65,46.65,81,20,2.3,FR,1701193344
565,hanzhong,33.0728,107.0303,51.82,69,71,3.33,CN,1701193345
566,yar,58.249,52.1026,22.82,98,100,2.48,RU,1701193345
567,bowen,-20.0167,148.2333,78.13,84,72,10.31,AU,1701193346
568,pacocha,-17.5833,-71.3333,73.54,60,0,6.91,PE,1701193346
569,puerto lleras,3.0223,-73.4044,81.97,84,41,4.81,CO,1701193347
570,zouerate,22.7187,-12.4521,73.26,12,88,6.49,MR,1701193347
571,bhimunipatnam,17.8833,83.4333,74.71,88,39,3.8,IN,1701193347
572,the pas,53.8251,-101.2541,32.02,80,100,14.97,CA,1701193348
573,dalandzadgad,43.5708,104.425,8.94,60,0,2.53,MN,1701193348
574,mengcheng chengguanzhen,33.2661,116.566,51.35,43,100,4.09,CN,1701193349
575,xishan,27.6667,113.5,54.43,75,34,4.14,CN,1701193349
576,denkanikota,12.5333,77.8,73.72,98,72,5.03,IN,1701193349
577,nkpor,6.1516,6.8446,81.05,74,100,6.85,NG,1701193350
578,norilsk,69.3535,88.2027,-12.33,97,40,5.5,RU,1701193350
579,wewak,-3.5534,143.6268,78.78,86,90,5.19,PG,1701193350
580,coron,11.9986,120.2043,81.21,81,7,5.39,PH,1701193351
581,maintirano,-18.0667,44.0167,82.6,77,93,4.59,MG,1701193352
582,mujiayingzi,42.1167,118.7833,10.35,40,0,14.0,CN,1701193352
583,atasu,48.6814,71.6433,40.86,52,93,7.31,KZ,1701193353
584,hammerfest,70.6634,23.6821,32.45,74,75,6.91,NO,1701193353
585,al muwayh,22.4333,41.7583,78.46,30,10,8.32,SA,1701193354
586,wajir,1.7471,40.0573,85.64,43,28,6.46,KE,1701193354
587,mildura,-34.2,142.15,62.08,90,99,18.75,AU,1701193355
588,juva,56.4368,57.9478,32.29,98,100,3.0,RU,1701193355
589,nyurba,63.2842,118.3319,-4.77,95,19,5.66,RU,1701193356
590,ad darb,17.7229,42.2526,84.11,69,2,8.19,SA,1701193357
591,gua musang,4.8823,101.9644,73.94,99,100,1.79,MY,1701193357
